,datetime,id,verification,phone,lat,lon,picked up,address,total_litter,SMOKING,FOOD,COFFEE,ALCOHOL,SOFTDRINKS,SANITARY,COASTAL,BRANDS,OTHER
0,2021-02-28 16:04:50,254503,2,iPhone 6,52.652077777778,5.0806277777778,Yes,"62, Lijster, Kersenboogerd, Hoorn, North Holland, Netherlands, 1628AM, Netherlands",1.0,0.0,0.0,0.0,0.0,1.0,0.0,0.0,0.0,0.0
1,2021-02-28 16:04:52,257046,2,iPhone 6,52.652077777778,5.0806277777778,Yes,"62, Lijster, Kersenboogerd, Hoorn, North Holland, Netherlands, 1628AM, Netherlands",1.0,0.0,0.0,0.0,0.0,1.0,0.0,0.0,0.0,0.0
2,2021-02-28 16:04:55,227305,2,iPhone 6,52.65205,5.0806916666667,Yes,"62, Lijster, Kersenboogerd, Hoorn, North Holland, Netherlands, 1628AM, Netherlands",1.0,0.0,0.0,0.0,0.0,1.0,0.0,0.0,1.0,0.0
3,2021-02-28 16:07:00,131524,2,iPhone 6,52.651611111111,5.0810222222222,Yes,"53, Lijster, Kersenboogerd, Hoorn, North Holland, Netherlands, 1628AM, The Netherlands",1.0,0.0,0.0,0.0,0.0,0.0,1.0,0.0,0.0,0.0
4,2021-02-28 16:07:43,254797,2,iPhone 6,52.651833333333,5.0815055555556,Yes,"Palissade, Kersenboogerd, Hoorn, North Holland, Netherlands, 1628AC, Netherlands",1.0,0.0,0.0,0.0,0.0,1.0,0.0,0.0,0.0,0.0
5,2021-02-28 16:08:28,176451,2,iPhone 6,52.651997222222,5.0817583333333,Yes,"51, Lijster, Kersenboogerd, Hoorn, North Holland, Netherlands, 1628AL, The Netherlands",2.0,0.0,1.0,0.0,0.0,0.0,0.0,0.0,1.0,0.0
6,2021-02-28 16:08:30,257403,2,iPhone 6,52.651997222222,5.0817583333333,Yes,"51, Lijster, Kersenboogerd, Hoorn, North Holland, Netherlands, 1628AL, Netherlands",1.0,0.0,0.0,0.0,0.0,1.0,0.0,0.0,0.0,0.0
7,2021-02-28 16:08:34,176672,2,iPhone 6,52.651930555556,5.0817166666667,Yes,"51, Lijster, Kersenboogerd, Hoorn, North Holland, Netherlands, 1628AL, The Netherlands",1.0,0.0,0.0,0.0,0.0,0.0,0.0,0.0,0.0,1.0
8,2021-02-28 16:36:35,131529,2,iPhone 6,52.652611111111,5.0801222222222,Yes,"78, Lijster, Kersenboogerd, Hoorn, North Holland, Netherlands, 1628AN, The Netherlands",1.0,0.0,0.0,0.0,0.0,0.0,1.0,0.0,0.0,0.0
