,datetime,id,verification,phone,lat,lon,picked up,address,total_litter,SMOKING,FOOD,COFFEE,ALCOHOL,SOFTDRINKS,SANITARY,COASTAL,BRANDS,OTHER
0,2021-09-23 11:01:05,254106,2,iPhone 6,52.655463888889,5.0790972222222,Yes,"97, Grutto, Kersenboogerd, Hoorn, North Holland, Netherlands, 1628BM, Netherlands",1.0,0.0,0.0,0.0,1.0,0.0,0.0,0.0,0.0,0.0
1,2021-09-23 11:02:21,253689,2,iPhone 6,52.656819444444,5.0780722222222,Yes,"IJsselweg, Blokker, Hoorn, North Holland, Netherlands, 1628BJ, Netherlands",1.0,0.0,0.0,0.0,0.0,0.0,0.0,0.0,0.0,1.0
2,2021-09-23 11:03:45,257878,2,iPhone 6,52.657469444444,5.0809611111111,Yes,"IJsselweg, Blokker, Hoorn, North Holland, Netherlands, 1628BJ, Netherlands",1.0,0.0,1.0,0.0,0.0,0.0,0.0,0.0,0.0,0.0
3,2021-09-23 11:03:46,257012,2,iPhone 6,52.657575,5.0802916666667,Yes,"Kloosterhout, Blokker, Hoorn, North Holland, Netherlands, 1628BJ, Netherlands",1.0,0.0,0.0,0.0,0.0,1.0,0.0,0.0,0.0,0.0
4,2021-09-23 11:04:32,221975,2,iPhone 6,52.658038888889,5.0798444444444,Yes,"Westerblokker, Blokker, Hoorn, North Holland, Netherlands, 1695JA, Netherlands",1.0,0.0,0.0,0.0,0.0,0.0,0.0,0.0,0.0,1.0
5,2021-09-23 11:04:34,223080,2,iPhone 6,52.658038888889,5.0798444444444,Yes,"Westerblokker, Blokker, Hoorn, North Holland, Netherlands, 1695JA, Netherlands",1.0,0.0,0.0,0.0,0.0,0.0,0.0,0.0,0.0,1.0
6,2021-09-23 11:05:37,278523,2,iPhone 6,52.658786111111,5.0814694444444,Yes,"151A, Westerblokker, Blokker, Hoorn, North Holland, Netherlands, 1695AD, Netherlands",1.0,0.0,0.0,0.0,0.0,1.0,0.0,0.0,1.0,0.0
7,2021-09-23 11:06:09,254961,2,iPhone 6,52.658752777778,5.0820194444444,Yes,"106, Westerblokker, Blokker, Hoorn, North Holland, Netherlands, 1695AK, Netherlands",1.0,1.0,0.0,0.0,0.0,0.0,0.0,0.0,0.0,0.0
8,2021-09-23 12:11:00,225182,2,iPhone 6,52.657027777778,5.0808361111111,Yes,"Nachtegaal, Kersenboogerd, Hoorn, North Holland, Netherlands, 1628KK, Netherlands",1.0,0.0,0.0,0.0,0.0,1.0,0.0,0.0,1.0,0.0
