,datetime,id,verification,phone,lat,lon,picked up,address,total_litter,SMOKING,FOOD,COFFEE,ALCOHOL,SOFTDRINKS,SANITARY,COASTAL,BRANDS,OTHER
0,2021-07-24 11:40:53,225259,2,iPhone 6,52.652972222222,5.0850111111111,Yes,"Asiania, 38, Betje Wolffplein, Winkelcentrum De Kersenboogerd, Hoorn, North Holland, Netherlands, 1628NA, Netherlands",1.0,0.0,0.0,0.0,0.0,1.0,0.0,0.0,1.0,0.0
1,2021-07-24 11:45:18,225260,2,iPhone 6,52.652805555556,5.085375,Yes,"Betje Wolffplein, Winkelcentrum De Kersenboogerd, Hoorn, North Holland, Netherlands, 1628NA, Netherlands",1.0,0.0,0.0,0.0,0.0,1.0,0.0,0.0,1.0,0.0
2,2021-07-24 11:45:19,225261,2,iPhone 6,52.652847222222,5.0851805555556,Yes,"Betje Wolffplein, Winkelcentrum De Kersenboogerd, Hoorn, North Holland, Netherlands, 1628NA, Netherlands",1.0,0.0,0.0,0.0,0.0,1.0,0.0,0.0,1.0,0.0
3,2021-07-24 11:45:20,258299,2,iPhone 6,52.652836111111,5.0850777777778,Yes,"Betje Wolffplein, Winkelcentrum De Kersenboogerd, Hoorn, North Holland, Netherlands, 1628NA, Netherlands",1.0,0.0,1.0,0.0,0.0,0.0,0.0,0.0,0.0,0.0
4,2021-07-24 11:46:34,225262,2,iPhone 6,52.653008333333,5.0852888888889,Yes,"6, Betje Wolffplein, Winkelcentrum De Kersenboogerd, Hoorn, North Holland, Netherlands, 1628NA, Netherlands",1.0,0.0,0.0,0.0,0.0,1.0,0.0,0.0,1.0,0.0
5,2021-07-24 11:46:35,225263,2,iPhone 6,52.653008333333,5.0852888888889,Yes,"6, Betje Wolffplein, Winkelcentrum De Kersenboogerd, Hoorn, North Holland, Netherlands, 1628NA, Netherlands",1.0,0.0,0.0,0.0,0.0,1.0,0.0,0.0,1.0,0.0
6,2021-07-24 11:46:38,228393,2,iPhone 6,52.653008333333,5.0852888888889,Yes,"6, Betje Wolffplein, Winkelcentrum De Kersenboogerd, Hoorn, North Holland, Netherlands, 1628NA, Netherlands",1.0,0.0,0.0,0.0,0.0,1.0,0.0,0.0,1.0,0.0
7,2021-07-24 11:47:48,225660,2,iPhone 6,52.652838888889,5.085225,Yes,"Betje Wolffplein, Winkelcentrum De Kersenboogerd, Hoorn, North Holland, Netherlands, 1628NA, Netherlands",1.0,0.0,0.0,0.0,0.0,1.0,0.0,0.0,1.0,0.0
8,2021-07-24 11:48:40,227990,2,iPhone 6,52.652736111111,5.085475,Yes,"Betje Wolffplein, Winkelcentrum De Kersenboogerd, Hoorn, North Holland, Netherlands, 1628NW, Netherlands",3.0,0.0,0.0,0.0,0.0,3.0,0.0,0.0,1.0,0.0
9,2021-07-24 11:48:42,225264,2,iPhone 6,52.652736111111,5.085475,Yes,"Betje Wolffplein, Winkelcentrum De Kersenboogerd, Hoorn, North Holland, Netherlands, 1628NW, Netherlands",1.0,0.0,0.0,0.0,0.0,1.0,0.0,0.0,1.0,0.0
10,2021-07-24 11:53:56,223259,2,iPhone 6,52.652561111111,5.0856416666667,Yes,"Betje Wolffplein, Winkelcentrum De Kersenboogerd, Hoorn, North Holland, Netherlands, 1628NW, Netherlands",1.0,0.0,0.0,0.0,0.0,0.0,0.0,0.0,0.0,1.0
11,2021-07-24 11:55:04,223260,2,iPhone 6,52.652347222222,5.0854861111111,Yes,"Dierenspeciaalzaak Pets & Co, 117, Betje Wolffplein, Winkelcentrum De Kersenboogerd, Hoorn, North Holland, Netherlands, 1628NH, Netherlands",1.0,0.0,0.0,0.0,0.0,0.0,0.0,0.0,0.0,1.0
12,2021-07-24 12:00:23,227708,2,iPhone 6,52.6512,5.0854666666667,Yes,"Mina Krusemanstraat, Kersenboogerd, Hoorn, North Holland, Netherlands, 1628NZ, Netherlands",1.0,1.0,0.0,0.0,0.0,0.0,0.0,0.0,1.0,0.0
13,2021-07-24 12:00:59,222194,2,iPhone 6,52.651722222222,5.0853194444444,Yes,"Mina Krusemanstraat, Kersenboogerd, Hoorn, North Holland, Netherlands, 1628NZ, Netherlands",1.0,0.0,0.0,0.0,0.0,0.0,0.0,0.0,0.0,1.0
14,2021-07-24 12:02:00,227837,2,iPhone 6,52.6521,5.0838694444444,Yes,"20, Mina Krusemanstraat, Kersenboogerd, Hoorn, North Holland, Netherlands, 1628NL, Netherlands",1.0,0.0,0.0,1.0,0.0,0.0,0.0,0.0,0.0,0.0
15,2021-07-24 12:02:02,227838,2,iPhone 6,52.65165,5.0838944444444,Yes,"60, Aletta Jacobsstraat, Kersenboogerd, Hoorn, North Holland, Netherlands, 1628NR, Netherlands",1.0,0.0,0.0,1.0,0.0,0.0,0.0,0.0,0.0,0.0
