,datetime,id,verification,phone,lat,lon,picked up,address,total_litter,SMOKING,FOOD,COFFEE,ALCOHOL,SOFTDRINKS,SANITARY,COASTAL,BRANDS,OTHER
0,2021-09-01 10:38:48,257668,2,iPhone 6,52.653388888889,5.0845444444444,Yes,"3, Borstwering, Kersenboogerd, Hoorn, North Holland, Netherlands, 1628KR, Netherlands",1.0,0.0,1.0,0.0,0.0,0.0,0.0,0.0,0.0,0.0
1,2021-09-01 10:39:32,225859,2,iPhone 6,52.653552777778,5.0841361111111,Yes,"17, Rondeelstraat, Kersenboogerd, Hoorn, North Holland, Netherlands, 1628KG, Netherlands",1.0,0.0,0.0,0.0,0.0,1.0,0.0,0.0,1.0,0.0
2,2021-09-01 10:41:19,254649,2,iPhone 6,52.652783333333,5.0849833333333,Yes,"Betje Wolffplein, Winkelcentrum De Kersenboogerd, Hoorn, North Holland, Netherlands, 1628NA, Netherlands",1.0,0.0,0.0,0.0,0.0,1.0,0.0,0.0,0.0,0.0
3,2021-09-01 10:42:05,223536,2,iPhone 6,52.653125,5.0859444444444,Yes,"800, Sophie Vitringastraat, Kersenboogerd, Hoorn, North Holland, Netherlands, 1628PA, Netherlands",1.0,0.0,0.0,0.0,0.0,0.0,0.0,0.0,0.0,1.0
4,2021-09-01 11:03:44,257270,2,iPhone 6,52.652713888889,5.084975,No,"Water, aarde, lucht, Betje Wolffplein, Kersenboogerd, Hoorn, North Holland, Netherlands, 1628NG, Netherlands",1.0,0.0,0.0,0.0,0.0,1.0,0.0,0.0,0.0,0.0
5,2021-09-01 11:05:25,228082,2,iPhone 6,52.653141666667,5.0848027777778,Yes,"30, Betje Wolffplein, Winkelcentrum De Kersenboogerd, Hoorn, North Holland, Netherlands, 1628NA, Netherlands",1.0,0.0,0.0,0.0,0.0,0.0,1.0,0.0,0.0,0.0
6,2021-09-01 11:05:27,223537,2,iPhone 6,52.653141666667,5.0848027777778,Yes,"30, Betje Wolffplein, Winkelcentrum De Kersenboogerd, Hoorn, North Holland, Netherlands, 1628NA, Netherlands",1.0,0.0,0.0,0.0,0.0,0.0,0.0,0.0,0.0,1.0
7,2021-09-01 11:06:11,256753,2,iPhone 6,52.653552777778,5.0844277777778,Yes,"22, Rondeelstraat, Kersenboogerd, Hoorn, North Holland, Netherlands, 1628KH, Netherlands",1.0,0.0,1.0,0.0,0.0,0.0,0.0,0.0,1.0,0.0
8,2021-09-01 11:06:53,256204,2,iPhone 6,52.653661111111,5.0840861111111,Yes,"16, Rondeelstraat, Kersenboogerd, Hoorn, North Holland, Netherlands, 1628KG, Netherlands",1.0,0.0,0.0,0.0,0.0,1.0,0.0,0.0,0.0,0.0
