,datetime,id,verification,phone,lat,lon,picked up,address,total_litter,SMOKING,FOOD,COFFEE,ALCOHOL,SOFTDRINKS,SANITARY,COASTAL,BRANDS,OTHER
0,2021-03-08 09:08:53,259205,2,iPhone 6,52.652194444444,5.0803805555556,Yes,"Zaanweg, Kersenboogerd, Hoorn, North Holland, Netherlands, 1628AM, Netherlands",1.0,0.0,1.0,0.0,0.0,0.0,0.0,0.0,0.0,0.0
1,2021-03-08 09:11:08,259206,2,iPhone 6,52.652291666667,5.080075,Yes,"Zaanweg, Kersenboogerd, Hoorn, North Holland, Netherlands, 1628AN, Netherlands",1.0,0.0,1.0,0.0,0.0,0.0,0.0,0.0,0.0,0.0
2,2021-03-08 14:09:53,225556,2,iPhone 6,52.652327777778,5.0799833333333,Yes,"Zaanweg, Kersenboogerd, Hoorn, North Holland, Netherlands, 1628AN, Netherlands",1.0,0.0,0.0,0.0,0.0,1.0,0.0,0.0,1.0,0.0
3,2021-03-08 14:10:58,176686,2,iPhone 6,52.652327777778,5.0798722222222,Yes,"Zaanweg, Kersenboogerd, Hoorn, North Holland, Netherlands, 1628AN, The Netherlands",1.0,0.0,0.0,0.0,0.0,0.0,0.0,0.0,0.0,1.0
4,2021-03-08 14:11:47,225557,2,iPhone 6,52.652652777778,5.0797444444444,Yes,"84, Lijster, Kersenboogerd, Hoorn, North Holland, Netherlands, 1628AN, Netherlands",1.0,0.0,0.0,0.0,0.0,1.0,0.0,0.0,1.0,0.0
5,2021-03-08 14:12:24,226962,2,iPhone 6,52.653058333333,5.0794555555556,Yes,"2, Lijster, Kersenboogerd, Hoorn, North Holland, Netherlands, 1628AJ, Netherlands",1.0,0.0,0.0,0.0,0.0,1.0,0.0,0.0,1.0,0.0
6,2021-03-08 14:13:33,176374,2,iPhone 6,52.653183333333,5.0800055555556,Yes,"40, Koolmees, Kersenboogerd, Hoorn, North Holland, Netherlands, 1628AT, The Netherlands",2.0,0.0,0.0,0.0,0.0,1.0,0.0,0.0,1.0,0.0
7,2021-03-08 14:15:00,255023,2,iPhone 6,52.653283333333,5.0798194444444,Yes,"39, Lijster, Kersenboogerd, Hoorn, North Holland, Netherlands, 1628AT, Netherlands",1.0,1.0,0.0,0.0,0.0,0.0,0.0,0.0,0.0,0.0
8,2021-03-08 14:15:02,131224,2,iPhone 6,52.653283333333,5.0798194444444,Yes,"39, Lijster, Kersenboogerd, Hoorn, North Holland, Netherlands, 1628AT, The Netherlands",2.0,1.0,0.0,0.0,0.0,0.0,0.0,0.0,1.0,0.0
9,2021-03-08 14:15:05,130921,2,iPhone 6,52.653283333333,5.0798194444444,Yes,"39, Lijster, Kersenboogerd, Hoorn, North Holland, Netherlands, 1628AT, The Netherlands",2.0,0.0,0.0,0.0,0.0,1.0,0.0,0.0,1.0,0.0
10,2021-03-08 14:15:08,139478,2,iPhone 6,52.653258333333,5.0798583333333,Yes,"39, Lijster, Kersenboogerd, Hoorn, North Holland, Netherlands, 1628AT, The Netherlands",2.0,0.0,1.0,0.0,0.0,0.0,0.0,0.0,1.0,0.0
11,2021-03-08 14:19:17,172941,2,iPhone 6,52.653263888889,5.07995,Yes,"40, Koolmees, Kersenboogerd, Hoorn, North Holland, Netherlands, 1628AT, The Netherlands",2.0,0.0,1.0,0.0,0.0,0.0,0.0,0.0,1.0,0.0
12,2021-03-08 14:19:19,130922,2,iPhone 6,52.653263888889,5.07995,Yes,"40, Koolmees, Kersenboogerd, Hoorn, North Holland, Netherlands, 1628AT, The Netherlands",2.0,0.0,0.0,0.0,0.0,1.0,0.0,0.0,1.0,0.0
13,2021-03-08 14:19:23,227540,2,iPhone 6,52.653263888889,5.07995,Yes,"40, Koolmees, Kersenboogerd, Hoorn, North Holland, Netherlands, 1628AT, Netherlands",1.0,0.0,0.0,0.0,0.0,1.0,0.0,0.0,1.0,0.0
14,2021-03-08 14:19:40,130923,2,iPhone 6,52.653227777778,5.07985,Yes,"39, Lijster, Kersenboogerd, Hoorn, North Holland, Netherlands, 1628AT, The Netherlands",2.0,0.0,0.0,0.0,0.0,1.0,0.0,0.0,1.0,0.0
15,2021-03-08 15:04:51,259694,2,iPhone 6,52.653738888889,5.0792,Yes,"120, Lijster, Kersenboogerd, Hoorn, North Holland, Netherlands, 1628AP, Netherlands",1.0,0.0,1.0,0.0,0.0,0.0,0.0,0.0,1.0,0.0
16,2021-03-08 15:04:53,227086,2,iPhone 6,52.653766666667,5.0791416666667,Yes,"120, Lijster, Kersenboogerd, Hoorn, North Holland, Netherlands, 1628AP, Netherlands",1.0,0.0,0.0,0.0,0.0,1.0,0.0,0.0,1.0,0.0
