,datetime,id,verification,phone,lat,lon,picked up,address,total_litter,SMOKING,FOOD,COFFEE,ALCOHOL,SOFTDRINKS,SANITARY,COASTAL,BRANDS,OTHER
0,2021-03-18 09:19:57,177891,2,iPhone 6,52.652236111111,5.0807416666667,Yes,"Lijster, Kersenboogerd, Hoorn, North Holland, Netherlands, 1628AM, The Netherlands",1.0,0.0,0.0,0.0,0.0,0.0,0.0,0.0,0.0,1.0
1,2021-03-18 09:19:59,177892,2,iPhone 6,52.652236111111,5.0807416666667,Yes,"Lijster, Kersenboogerd, Hoorn, North Holland, Netherlands, 1628AM, The Netherlands",1.0,0.0,0.0,0.0,0.0,0.0,0.0,0.0,0.0,1.0
2,2021-03-18 09:20:01,259104,2,iPhone 6,52.652236111111,5.0807416666667,Yes,"Lijster, Kersenboogerd, Hoorn, North Holland, Netherlands, 1628AM, Netherlands",1.0,0.0,1.0,0.0,0.0,0.0,0.0,0.0,0.0,0.0
3,2021-03-18 09:21:12,179063,2,iPhone 6,52.651930555556,5.0805166666667,Yes,"Ecoproject Het Lantaarntje, Zaanweg, Kersenboogerd, Hoorn, North Holland, Netherlands, 1628AM, The Netherlands",1.0,0.0,0.0,0.0,0.0,0.0,0.0,0.0,0.0,1.0
4,2021-03-18 09:23:00,177045,2,iPhone 6,52.651938888889,5.0805472222222,Yes,"Ecoproject Het Lantaarntje, Zaanweg, Kersenboogerd, Hoorn, North Holland, Netherlands, 1628AM, The Netherlands",1.0,0.0,0.0,0.0,0.0,0.0,0.0,0.0,0.0,1.0
5,2021-03-18 09:23:06,259105,2,iPhone 6,52.651936111111,5.0805777777778,Yes,"Ecoproject Het Lantaarntje, Zaanweg, Kersenboogerd, Hoorn, North Holland, Netherlands, 1628AM, Netherlands",1.0,0.0,1.0,0.0,0.0,0.0,0.0,0.0,0.0,0.0
6,2021-03-18 09:24:07,139788,2,iPhone 6,52.651905555556,5.0806111111111,No,"Ecoproject Het Lantaarntje, Zaanweg, Kersenboogerd, Hoorn, North Holland, Netherlands, 1628AM, The Netherlands",2.0,0.0,0.0,0.0,0.0,1.0,0.0,0.0,1.0,0.0
7,2021-03-18 09:24:09,225647,2,iPhone 6,52.651905555556,5.0806111111111,Yes,"Ecoproject Het Lantaarntje, Zaanweg, Kersenboogerd, Hoorn, North Holland, Netherlands, 1628AM, Netherlands",1.0,0.0,0.0,0.0,0.0,1.0,0.0,0.0,1.0,0.0
8,2021-03-18 09:24:57,255908,2,iPhone 6,52.65195,5.0808888888889,Yes,"59, Lijster, Kersenboogerd, Hoorn, North Holland, Netherlands, 1628AM, Netherlands",1.0,0.0,0.0,0.0,0.0,1.0,0.0,0.0,1.0,0.0
9,2021-03-18 09:25:52,177046,2,iPhone 6,52.651755555556,5.0807055555556,Yes,"Zaanweg, Kersenboogerd, Hoorn, North Holland, Netherlands, 1628AM, The Netherlands",1.0,0.0,0.0,0.0,0.0,0.0,0.0,0.0,0.0,1.0
10,2021-03-18 09:28:13,225648,2,iPhone 6,52.651672222222,5.0814972222222,Yes,"Palissade, Kersenboogerd, Hoorn, North Holland, Netherlands, 1628AC, Netherlands",1.0,0.0,0.0,0.0,0.0,1.0,0.0,0.0,1.0,0.0
11,2021-03-18 09:29:01,225649,2,iPhone 6,52.651805555556,5.0820527777778,Yes,"Palissade, Kersenboogerd, Hoorn, North Holland, Netherlands, 1628AC, Netherlands",1.0,0.0,0.0,0.0,0.0,1.0,0.0,0.0,1.0,0.0
12,2021-03-18 09:31:15,259106,2,iPhone 6,52.651969444444,5.0822055555556,Yes,"Palissade, Kersenboogerd, Hoorn, North Holland, Netherlands, 1628AC, Netherlands",1.0,0.0,1.0,0.0,0.0,0.0,0.0,0.0,0.0,0.0
13,2021-03-18 09:31:17,256592,2,iPhone 6,52.652008333333,5.0822527777778,Yes,"Palissade, Kersenboogerd, Hoorn, North Holland, Netherlands, 1628AC, Netherlands",1.0,0.0,0.0,1.0,0.0,0.0,0.0,0.0,0.0,0.0
14,2021-03-18 09:31:20,226775,2,iPhone 6,52.652008333333,5.0822527777778,Yes,"Palissade, Kersenboogerd, Hoorn, North Holland, Netherlands, 1628AC, Netherlands",1.0,0.0,0.0,0.0,1.0,0.0,0.0,0.0,1.0,0.0
15,2021-03-18 09:32:44,177047,2,iPhone 6,52.652069444444,5.0822083333333,Yes,"Palissade, Kersenboogerd, Hoorn, North Holland, Netherlands, 1628AC, The Netherlands",1.0,0.0,0.0,0.0,0.0,0.0,0.0,0.0,0.0,1.0
16,2021-03-18 09:32:46,259107,2,iPhone 6,52.652069444444,5.0822083333333,Yes,"Palissade, Kersenboogerd, Hoorn, North Holland, Netherlands, 1628AC, Netherlands",1.0,0.0,1.0,0.0,0.0,0.0,0.0,0.0,0.0,0.0
17,2021-03-18 09:32:48,259108,2,iPhone 6,52.652069444444,5.0822083333333,Yes,"Palissade, Kersenboogerd, Hoorn, North Holland, Netherlands, 1628AC, Netherlands",1.0,0.0,1.0,0.0,0.0,0.0,0.0,0.0,0.0,0.0
18,2021-03-18 09:33:56,177893,2,iPhone 6,52.651825,5.0823722222222,Yes,"36, Stijl, Kersenboogerd, Hoorn, North Holland, Netherlands, 1628HC, The Netherlands",1.0,0.0,0.0,0.0,0.0,0.0,0.0,0.0,0.0,1.0
19,2021-03-18 09:35:01,176463,2,iPhone 6,52.652052777778,5.0820833333333,Yes,"Palissade, Kersenboogerd, Hoorn, North Holland, Netherlands, 1628AC, The Netherlands",1.0,0.0,1.0,0.0,0.0,0.0,0.0,0.0,0.0,0.0
20,2021-03-18 09:35:02,177048,2,iPhone 6,52.652052777778,5.0820833333333,Yes,"Palissade, Kersenboogerd, Hoorn, North Holland, Netherlands, 1628AC, The Netherlands",1.0,0.0,0.0,0.0,0.0,0.0,0.0,0.0,0.0,1.0
21,2021-03-18 09:37:22,144028,2,iPhone 6,52.652063888889,5.0819833333333,Yes,"42, Ekster, Kersenboogerd, Hoorn, North Holland, Netherlands, 1628AC, The Netherlands",2.0,0.0,0.0,0.0,1.0,0.0,0.0,0.0,1.0,0.0
22,2021-03-18 09:38:58,225650,2,iPhone 6,52.652275,5.0824777777778,Yes,"Palissade, Kersenboogerd, Hoorn, North Holland, Netherlands, 1628AC, Netherlands",1.0,0.0,0.0,0.0,0.0,1.0,0.0,0.0,1.0,0.0
23,2021-03-18 09:42:30,254192,2,iPhone 6,52.654438888889,5.0830222222222,Yes,"Ekster, Kersenboogerd, Hoorn, North Holland, Netherlands, 1628AG, Netherlands",1.0,0.0,0.0,0.0,1.0,0.0,0.0,0.0,0.0,0.0
24,2021-03-18 09:42:32,226362,2,iPhone 6,52.654730555556,5.0829305555556,Yes,"Peking Express, 58, Spaarneweg, Kersenboogerd, Hoorn, North Holland, Netherlands, 1628BC, Netherlands",1.0,0.0,0.0,0.0,0.0,1.0,0.0,0.0,1.0,0.0
25,2021-03-18 10:04:54,132307,2,iPhone 6,52.654541666667,5.081575,No,"141, Spaarneweg, Kersenboogerd, Hoorn, North Holland, Netherlands, 1628AH, The Netherlands",2.0,0.0,0.0,0.0,0.0,1.0,0.0,0.0,1.0,0.0
