,datetime,id,verification,phone,lat,lon,picked up,address,total_litter,SMOKING,FOOD,COFFEE,ALCOHOL,SOFTDRINKS,SANITARY,COASTAL,BRANDS,OTHER
0,2021-06-03 10:57:12,162880,2,iPhone 6,52.652858333333,5.0851666666667,Yes,"Betje Wolffplein, Winkelcentrum De Kersenboogerd, Hoorn, North Holland, Netherlands, 1628NA, The Netherlands",1.0,0.0,0.0,0.0,0.0,0.0,0.0,0.0,0.0,1.0
1,2021-06-03 11:57:14,162881,2,iPhone 6,52.651694444444,5.0848611111111,Yes,"Mina Krusemanstraat, Kersenboogerd, Hoorn, North Holland, Netherlands, 1628NS, The Netherlands",1.0,0.0,0.0,0.0,0.0,0.0,0.0,0.0,0.0,1.0
2,2021-06-03 11:57:58,257749,2,iPhone 6,52.651608333333,5.0848666666667,Yes,"Mina Krusemanstraat, Kersenboogerd, Hoorn, North Holland, Netherlands, 1628NS, Netherlands",1.0,0.0,1.0,0.0,0.0,0.0,0.0,0.0,0.0,0.0
3,2021-06-03 11:58:00,162587,2,iPhone 6,52.651608333333,5.0848666666667,Yes,"Mina Krusemanstraat, Kersenboogerd, Hoorn, North Holland, Netherlands, 1628NS, The Netherlands",1.0,0.0,0.0,0.0,0.0,0.0,1.0,0.0,0.0,0.0
4,2021-06-03 11:58:02,163325,2,iPhone 6,52.651569444444,5.084925,Yes,"Mina Krusemanstraat, Kersenboogerd, Hoorn, North Holland, Netherlands, 1628NS, The Netherlands",2.0,0.0,0.0,0.0,0.0,1.0,0.0,0.0,1.0,0.0
5,2021-06-03 11:58:54,163326,2,iPhone 6,52.651280555556,5.0855444444444,Yes,"Mina Krusemanstraat, Kersenboogerd, Hoorn, North Holland, Netherlands, 1628NZ, The Netherlands",2.0,0.0,0.0,0.0,0.0,1.0,0.0,0.0,1.0,0.0
6,2021-06-03 11:59:33,162882,2,iPhone 6,52.651236111111,5.0852805555556,Yes,"Mina Krusemanstraat, Kersenboogerd, Hoorn, North Holland, Netherlands, 1628NZ, The Netherlands",1.0,0.0,0.0,0.0,0.0,0.0,0.0,0.0,0.0,1.0
7,2021-06-03 12:00:21,162883,2,iPhone 6,52.651347222222,5.0859888888889,Yes,"Aagje Dekenplein, Marquettegracht, Kersenboogerd, Hoorn, North Holland, Netherlands, 1628LS, The Netherlands",1.0,0.0,0.0,0.0,0.0,0.0,0.0,0.0,0.0,1.0
8,2021-06-03 12:01:23,178594,2,iPhone 6,52.651522222222,5.0868638888889,Yes,"Aagje Dekenplein, Marquettegracht, Kersenboogerd, Hoorn, North Holland, Netherlands, 1628LS, The Netherlands",1.0,0.0,0.0,1.0,0.0,0.0,0.0,0.0,0.0,0.0
9,2021-06-03 12:01:25,176567,2,iPhone 6,52.651383333333,5.0866694444444,Yes,"Aagje Dekenplein, Marquettegracht, Kersenboogerd, Hoorn, North Holland, Netherlands, 1628LS, The Netherlands",1.0,0.0,0.0,0.0,0.0,1.0,0.0,0.0,0.0,0.0
10,2021-06-03 12:01:26,163577,2,iPhone 6,52.651341666667,5.0866222222222,Yes,"Aagje Dekenplein, Winkelcentrum De Kersenboogerd, Hoorn, North Holland, Netherlands, 1628LA, The Netherlands",1.0,0.0,0.0,0.0,0.0,0.0,0.0,0.0,0.0,1.0
11,2021-06-03 12:01:28,163578,2,iPhone 6,52.651341666667,5.0866222222222,Yes,"Aagje Dekenplein, Winkelcentrum De Kersenboogerd, Hoorn, North Holland, Netherlands, 1628LA, The Netherlands",1.0,0.0,0.0,0.0,0.0,0.0,0.0,0.0,0.0,1.0
12,2021-06-03 12:10:58,179670,2,iPhone 6,52.651566666667,5.0866222222222,Yes,"Aagje Dekenplein, Winkelcentrum De Kersenboogerd, Hoorn, North Holland, Netherlands, 1628LA, The Netherlands",2.0,0.0,1.0,0.0,0.0,0.0,0.0,0.0,1.0,0.0
13,2021-06-03 12:11:01,255394,2,iPhone 6,52.651530555556,5.0864111111111,Yes,"Hairplayers, 30, Aagje Dekenplein, Winkelcentrum De Kersenboogerd, Hoorn, North Holland, Netherlands, 1628NX, Netherlands",1.0,0.0,0.0,0.0,0.0,1.0,0.0,0.0,0.0,0.0
14,2021-06-03 12:11:03,176199,2,iPhone 6,52.651530555556,5.0864111111111,Yes,"Hairplayers, 30, Aagje Dekenplein, Winkelcentrum De Kersenboogerd, Hoorn, North Holland, Netherlands, 1628NX, The Netherlands",1.0,0.0,0.0,0.0,1.0,0.0,0.0,0.0,0.0,0.0
