,datetime,id,verification,phone,lat,lon,picked up,address,total_litter,SMOKING,FOOD,COFFEE,ALCOHOL,SOFTDRINKS,SANITARY,COASTAL,BRANDS,OTHER
0,2021-06-03 11:54:50,254078,2,iPhone 6,52.650719444444,5.0816111111111,Yes,"5, Stijl, Kersenboogerd, Hoorn, North Holland, Netherlands, 1628HA, Netherlands",1.0,0.0,0.0,0.0,1.0,0.0,0.0,0.0,0.0,0.0
1,2021-06-03 11:55:27,172286,2,iPhone 6,52.650805555556,5.0818111111111,Yes,"9, Stijl, Kersenboogerd, Hoorn, North Holland, Netherlands, 1628HA, The Netherlands",2.0,1.0,0.0,0.0,0.0,0.0,0.0,0.0,1.0,0.0
2,2021-06-03 12:13:30,225590,2,iPhone 6,52.650386111111,5.0833805555556,Yes,"98, Messing, Kersenboogerd, Hoorn, North Holland, Netherlands, 1628HR, Netherlands",1.0,0.0,0.0,0.0,0.0,1.0,0.0,0.0,1.0,0.0
3,2021-06-03 12:14:08,225591,2,iPhone 6,52.650494444444,5.0828416666667,Yes,"48, Messing, Kersenboogerd, Hoorn, North Holland, Netherlands, 1628HH, Netherlands",1.0,0.0,0.0,0.0,0.0,1.0,0.0,0.0,1.0,0.0
4,2021-06-03 12:16:30,176414,2,iPhone 6,52.65065,5.0814111111111,Yes,"2, Dorpel, Kersenboogerd, Hoorn, North Holland, Netherlands, 1628JK, The Netherlands",3.0,0.0,0.0,1.0,0.0,2.0,0.0,0.0,0.0,0.0
5,2021-06-03 12:16:52,225592,2,iPhone 6,52.650425,5.0819222222222,Yes,"2, Amstelweg, Kersenboogerd, Hoorn, North Holland, Netherlands, 1628HE, Netherlands",1.0,0.0,0.0,0.0,0.0,1.0,0.0,0.0,1.0,0.0
6,2021-06-03 12:17:47,225593,2,iPhone 6,52.650352777778,5.0818166666667,Yes,"2, Amstelweg, Kersenboogerd, Hoorn, North Holland, Netherlands, 1628HE, Netherlands",1.0,0.0,0.0,0.0,0.0,1.0,0.0,0.0,1.0,0.0
7,2021-06-03 12:17:48,225594,2,iPhone 6,52.650436111111,5.08125,Yes,"Praktijkschool Westfriesland, 124, Hunzeweg, Kersenboogerd, Hoorn, North Holland, Netherlands, 1628JG, Netherlands",1.0,0.0,0.0,0.0,0.0,1.0,0.0,0.0,1.0,0.0
8,2021-06-03 12:17:49,225595,2,iPhone 6,52.650436111111,5.08125,Yes,"Praktijkschool Westfriesland, 124, Hunzeweg, Kersenboogerd, Hoorn, North Holland, Netherlands, 1628JG, Netherlands",1.0,0.0,0.0,0.0,0.0,1.0,0.0,0.0,1.0,0.0
9,2021-06-03 12:18:09,225596,2,iPhone 6,52.650427777778,5.0812666666667,Yes,"Praktijkschool Westfriesland, 124, Hunzeweg, Kersenboogerd, Hoorn, North Holland, Netherlands, 1628JG, Netherlands",1.0,0.0,0.0,0.0,0.0,1.0,0.0,0.0,1.0,0.0
10,2021-06-03 12:18:11,225598,2,iPhone 6,52.650427777778,5.0812666666667,Yes,"Praktijkschool Westfriesland, 124, Hunzeweg, Kersenboogerd, Hoorn, North Holland, Netherlands, 1628JG, Netherlands",1.0,0.0,0.0,0.0,0.0,1.0,0.0,0.0,1.0,0.0
11,2021-06-03 12:18:42,162884,2,iPhone 6,52.650536111111,5.0812222222222,Yes,"10, Dorpel, Kersenboogerd, Hoorn, North Holland, Netherlands, 1628JK, The Netherlands",1.0,0.0,0.0,0.0,0.0,0.0,0.0,0.0,0.0,1.0
12,2021-06-03 12:18:44,176378,2,iPhone 6,52.650536111111,5.0812222222222,Yes,"10, Dorpel, Kersenboogerd, Hoorn, North Holland, Netherlands, 1628JK, The Netherlands",2.0,0.0,0.0,0.0,0.0,1.0,0.0,0.0,1.0,0.0
13,2021-06-03 12:18:45,176501,2,iPhone 6,52.650536111111,5.0812222222222,Yes,"10, Dorpel, Kersenboogerd, Hoorn, North Holland, Netherlands, 1628JK, The Netherlands",2.0,0.0,0.0,0.0,0.0,1.0,0.0,0.0,1.0,0.0
14,2021-06-03 12:19:48,225599,2,iPhone 6,52.650211111111,5.0807777777778,Yes,"Praktijkschool Westfriesland, 124, Hunzeweg, Kersenboogerd, Hoorn, North Holland, Netherlands, 1628JG, Netherlands",1.0,0.0,0.0,0.0,0.0,1.0,0.0,0.0,1.0,0.0
15,2021-06-03 12:20:17,172287,2,iPhone 6,52.649977777778,5.0810472222222,Yes,"122, Gording, Kersenboogerd, Hoorn, North Holland, Netherlands, 1628JG, The Netherlands",2.0,1.0,0.0,0.0,0.0,0.0,0.0,0.0,1.0,0.0
16,2021-06-03 12:20:44,162885,2,iPhone 6,52.650394444444,5.0810833333333,Yes,"Praktijkschool Westfriesland, 124, Hunzeweg, Kersenboogerd, Hoorn, North Holland, Netherlands, 1628JG, The Netherlands",1.0,0.0,0.0,0.0,0.0,0.0,0.0,0.0,0.0,1.0
17,2021-06-03 12:22:33,225601,2,iPhone 6,52.650816666667,5.0815666666667,Yes,"4, Stijl, Kersenboogerd, Hoorn, North Holland, Netherlands, 1628HA, Netherlands",1.0,0.0,0.0,0.0,0.0,1.0,0.0,0.0,1.0,0.0
18,2021-06-03 12:22:35,163327,2,iPhone 6,52.650775,5.0813666666667,Yes,"2, Dorpel, Kersenboogerd, Hoorn, North Holland, Netherlands, 1628JK, The Netherlands",2.0,0.0,0.0,0.0,0.0,1.0,0.0,0.0,1.0,0.0
19,2021-06-03 12:23:04,254512,2,iPhone 6,52.650677777778,5.0813083333333,Yes,"2, Dorpel, Kersenboogerd, Hoorn, North Holland, Netherlands, 1628JK, Netherlands",1.0,0.0,0.0,0.0,0.0,1.0,0.0,0.0,0.0,0.0
