,datetime,id,verification,phone,lat,lon,picked up,address,total_litter,SMOKING,FOOD,COFFEE,ALCOHOL,SOFTDRINKS,SANITARY,COASTAL,BRANDS,OTHER
0,2021-06-05 10:05:46,227093,2,iPhone 6,52.654852777778,5.082825,Yes,"Dierenkliniek Hoorn, 56, Spaarneweg, Kersenboogerd, Hoorn, North Holland, Netherlands, 1628BC, Netherlands",1.0,0.0,0.0,0.0,0.0,1.0,0.0,0.0,1.0,0.0
1,2021-06-05 10:05:50,255503,2,iPhone 6,52.654852777778,5.082825,Yes,"Dierenkliniek Hoorn, 56, Spaarneweg, Kersenboogerd, Hoorn, North Holland, Netherlands, 1628BC, Netherlands",1.0,0.0,0.0,0.0,0.0,1.0,0.0,0.0,0.0,0.0
2,2021-06-05 10:06:24,176201,2,iPhone 6,52.654705555556,5.0826333333333,Yes,"Kapsalon Irene, 53, Spaarneweg, Kersenboogerd, Hoorn, North Holland, Netherlands, 1628BC, The Netherlands",1.0,0.0,0.0,0.0,1.0,0.0,0.0,0.0,0.0,0.0
3,2021-06-05 10:07:00,173272,2,iPhone 6,52.654472222222,5.0830611111111,Yes,"Ekster, Kersenboogerd, Hoorn, North Holland, Netherlands, 1628AG, The Netherlands",1.0,0.0,0.0,0.0,0.0,1.0,0.0,0.0,0.0,0.0
4,2021-06-05 10:07:58,178666,2,iPhone 6,52.655144444444,5.0840666666667,Yes,"144, Spaarneweg, Kersenboogerd, Hoorn, North Holland, Netherlands, 1628DJ, The Netherlands",1.0,0.0,0.0,0.0,0.0,1.0,0.0,0.0,0.0,0.0
5,2021-06-05 10:08:34,256804,2,iPhone 6,52.655025,5.0840694444444,Yes,"19, Radboudgracht, Kersenboogerd, Hoorn, North Holland, Netherlands, 1628KL, Netherlands",1.0,0.0,1.0,0.0,0.0,0.0,0.0,0.0,0.0,0.0
6,2021-06-05 10:08:36,257025,2,iPhone 6,52.655036111111,5.0840722222222,Yes,"19, Radboudgracht, Kersenboogerd, Hoorn, North Holland, Netherlands, 1628KL, Netherlands",1.0,0.0,0.0,0.0,0.0,1.0,0.0,0.0,0.0,0.0
7,2021-06-05 10:09:07,178667,2,iPhone 6,52.654991666667,5.0841444444444,Yes,"19, Radboudgracht, Kersenboogerd, Hoorn, North Holland, Netherlands, 1628KL, The Netherlands",1.0,0.0,0.0,0.0,0.0,1.0,0.0,0.0,0.0,0.0
8,2021-06-05 10:09:43,254993,2,iPhone 6,52.655338888889,5.0852472222222,Yes,"Bastion, Kersenboogerd, Hoorn, North Holland, Netherlands, 1628KL, Netherlands",1.0,1.0,0.0,0.0,0.0,0.0,0.0,0.0,0.0,0.0
9,2021-06-05 11:05:05,167113,2,iPhone 6,52.653969444444,5.0835555555556,Yes,"1, Nieuwendoorngracht, Kersenboogerd, Hoorn, North Holland, Netherlands, 1628KC, The Netherlands",2.0,0.0,0.0,0.0,1.0,0.0,0.0,0.0,1.0,0.0
10,2021-06-05 11:06:07,167114,2,iPhone 6,52.654236111111,5.0831833333333,Yes,"Ekster, Kersenboogerd, Hoorn, North Holland, Netherlands, 1628AG, The Netherlands",2.0,0.0,0.0,0.0,1.0,0.0,0.0,0.0,1.0,0.0
11,2021-06-05 11:06:08,167115,2,iPhone 6,52.654083333333,5.0833972222222,Yes,"3, Nieuwendoorngracht, Kersenboogerd, Hoorn, North Holland, Netherlands, 1628KC, The Netherlands",2.0,0.0,0.0,0.0,1.0,0.0,0.0,0.0,1.0,0.0
12,2021-06-05 12:55:48,163338,2,iPhone 6,52.654352777778,5.0842222222222,Yes,"Nieuwendoorngracht, Kersenboogerd, Hoorn, North Holland, Netherlands, 1628KN, The Netherlands",2.0,0.0,0.0,0.0,0.0,1.0,0.0,0.0,1.0,0.0
13,2021-06-05 12:56:15,163339,2,iPhone 6,52.654144444444,5.0837277777778,Yes,"42, Rondeelstraat, Kersenboogerd, Hoorn, North Holland, Netherlands, 1628KH, The Netherlands",2.0,0.0,0.0,0.0,0.0,1.0,0.0,0.0,1.0,0.0
14,2021-06-05 12:58:16,172891,2,iPhone 6,52.654255555556,5.0837222222222,Yes,"Nieuwendoorngracht, Kersenboogerd, Hoorn, North Holland, Netherlands, 1628KN, The Netherlands",1.0,1.0,0.0,0.0,0.0,0.0,0.0,0.0,0.0,0.0
15,2021-06-05 12:58:18,257308,2,iPhone 6,52.654255555556,5.0837222222222,No,"Nieuwendoorngracht, Kersenboogerd, Hoorn, North Holland, Netherlands, 1628KN, Netherlands",2.0,0.0,0.0,0.0,2.0,0.0,0.0,0.0,0.0,0.0
16,2021-06-05 12:58:20,163606,2,iPhone 6,52.654255555556,5.0837222222222,Yes,"Nieuwendoorngracht, Kersenboogerd, Hoorn, North Holland, Netherlands, 1628KN, The Netherlands",1.0,0.0,0.0,0.0,0.0,0.0,0.0,0.0,0.0,1.0
17,2021-06-05 12:58:24,257309,2,iPhone 6,52.654255555556,5.0837222222222,No,"Nieuwendoorngracht, Kersenboogerd, Hoorn, North Holland, Netherlands, 1628KN, Netherlands",9.0,0.0,0.0,0.0,9.0,0.0,0.0,0.0,0.0,0.0
18,2021-06-05 13:01:23,163607,2,iPhone 6,52.656186111111,5.0837166666667,Yes,"139, Nachtegaal, Kersenboogerd, Hoorn, North Holland, Netherlands, 1628DJ, The Netherlands",1.0,0.0,0.0,0.0,0.0,0.0,0.0,0.0,0.0,1.0
19,2021-06-05 13:01:24,162921,2,iPhone 6,52.654441666667,5.0831666666667,Yes,"Ekster, Kersenboogerd, Hoorn, North Holland, Netherlands, 1628AG, The Netherlands",1.0,0.0,0.0,0.0,0.0,0.0,0.0,0.0,0.0,1.0
20,2021-06-05 13:01:26,162922,2,iPhone 6,52.654441666667,5.0831666666667,Yes,"Ekster, Kersenboogerd, Hoorn, North Holland, Netherlands, 1628AG, The Netherlands",1.0,0.0,0.0,0.0,0.0,0.0,0.0,0.0,0.0,1.0
21,2021-06-05 13:02:55,254151,2,iPhone 6,52.654213888889,5.0831777777778,Yes,"Ekster, Kersenboogerd, Hoorn, North Holland, Netherlands, 1628AG, Netherlands",1.0,0.0,0.0,0.0,1.0,0.0,0.0,0.0,0.0,0.0
22,2021-06-05 13:02:56,162923,2,iPhone 6,52.654213888889,5.0831777777778,Yes,"Ekster, Kersenboogerd, Hoorn, North Holland, Netherlands, 1628AG, The Netherlands",1.0,0.0,0.0,0.0,0.0,0.0,0.0,0.0,0.0,1.0
23,2021-06-05 13:04:16,162924,2,iPhone 6,52.654177777778,5.0832138888889,Yes,"6, Nieuwendoorngracht, Kersenboogerd, Hoorn, North Holland, Netherlands, 1628KC, The Netherlands",1.0,0.0,0.0,0.0,0.0,0.0,0.0,0.0,0.0,1.0
24,2021-06-05 13:04:18,254168,2,iPhone 6,52.654111111111,5.0831166666667,Yes,"13, Nieuwendoorngracht, Kersenboogerd, Hoorn, North Holland, Netherlands, 1628KC, Netherlands",1.0,0.0,0.0,0.0,1.0,0.0,0.0,0.0,0.0,0.0
25,2021-06-05 13:05:20,172892,2,iPhone 6,52.654308333333,5.08345,Yes,"48, Rondeelstraat, Kersenboogerd, Hoorn, North Holland, Netherlands, 1628KJ, The Netherlands",1.0,1.0,0.0,0.0,0.0,0.0,0.0,0.0,0.0,0.0
26,2021-06-05 13:05:22,228339,2,iPhone 6,52.654308333333,5.08345,Yes,"48, Rondeelstraat, Kersenboogerd, Hoorn, North Holland, Netherlands, 1628KJ, Netherlands",1.0,0.0,0.0,0.0,0.0,1.0,0.0,0.0,1.0,0.0
27,2021-06-05 13:05:28,163340,2,iPhone 6,52.65425,5.0833416666667,Yes,"48, Rondeelstraat, Kersenboogerd, Hoorn, North Holland, Netherlands, 1628KJ, The Netherlands",2.0,0.0,0.0,0.0,0.0,1.0,0.0,0.0,1.0,0.0
28,2021-06-05 13:06:18,172893,2,iPhone 6,52.654202777778,5.083,Yes,"Ekster, Kersenboogerd, Hoorn, North Holland, Netherlands, 1628AG, The Netherlands",1.0,1.0,0.0,0.0,0.0,0.0,0.0,0.0,0.0,0.0
29,2021-06-05 13:06:20,228340,2,iPhone 6,52.654225,5.0832416666667,Yes,"De kus, Nieuwendoorngracht, Kersenboogerd, Hoorn, North Holland, Netherlands, 1628KC, Netherlands",1.0,0.0,0.0,0.0,0.0,1.0,0.0,0.0,1.0,0.0
30,2021-06-05 14:57:35,258789,2,iPhone 6,52.653725,5.0856694444444,Yes,"44, Rijnweg, Kersenboogerd, Hoorn, North Holland, Netherlands, 1628PC, Netherlands",1.0,0.0,1.0,0.0,0.0,0.0,0.0,0.0,0.0,0.0
31,2021-06-05 14:58:23,162597,2,iPhone 6,52.653538888889,5.0850972222222,Yes,"Hero Koffiecorner, Borstwering, Kersenboogerd, Hoorn, North Holland, Netherlands, 1628KR, The Netherlands",1.0,0.0,0.0,0.0,0.0,0.0,1.0,0.0,0.0,0.0
32,2021-06-05 14:59:23,163609,2,iPhone 6,52.653491666667,5.0851055555556,Yes,"Hero Koffiecorner, Borstwering, Kersenboogerd, Hoorn, North Holland, Netherlands, 1628KR, The Netherlands",1.0,0.0,0.0,0.0,0.0,0.0,0.0,0.0,0.0,1.0
33,2021-06-05 14:59:25,259698,2,iPhone 6,52.653477777778,5.0850138888889,Yes,"Hero Koffiecorner, Borstwering, Kersenboogerd, Hoorn, North Holland, Netherlands, 1628KR, Netherlands",1.0,0.0,1.0,0.0,0.0,0.0,0.0,0.0,1.0,0.0
34,2021-06-05 14:59:26,163610,2,iPhone 6,52.653477777778,5.0850138888889,Yes,"Hero Koffiecorner, Borstwering, Kersenboogerd, Hoorn, North Holland, Netherlands, 1628KR, The Netherlands",1.0,0.0,0.0,0.0,0.0,0.0,0.0,0.0,0.0,1.0
35,2021-06-05 14:59:28,163611,2,iPhone 6,52.653438888889,5.0849638888889,Yes,"Hero Koffiecorner, Borstwering, Kersenboogerd, Hoorn, North Holland, Netherlands, 1628KR, The Netherlands",1.0,0.0,0.0,0.0,0.0,0.0,0.0,0.0,0.0,1.0
36,2021-06-05 15:00:18,225610,2,iPhone 6,52.653541666667,5.08475,Yes,"14, Borstwering, Kersenboogerd, Hoorn, North Holland, Netherlands, 1628KR, Netherlands",1.0,0.0,0.0,0.0,0.0,1.0,0.0,0.0,1.0,0.0
