,datetime,id,verification,phone,lat,lon,picked up,address,total_litter,SMOKING,FOOD,COFFEE,ALCOHOL,SOFTDRINKS,SANITARY,COASTAL,BRANDS,OTHER
0,2021-06-23 10:39:03,255864,2,iPhone 6,52.652583333333,5.0818472222222,Yes,"Ekster, Kersenboogerd, Hoorn, North Holland, Netherlands, 1628AD, Netherlands",1.0,0.0,0.0,0.0,0.0,0.0,0.0,0.0,0.0,1.0
1,2021-06-23 10:39:57,223382,2,iPhone 6,52.652541666667,5.081775,Yes,"Ekster, Kersenboogerd, Hoorn, North Holland, Netherlands, 1628AD, Netherlands",1.0,0.0,0.0,0.0,0.0,0.0,0.0,0.0,0.0,1.0
2,2021-06-23 10:40:55,223383,2,iPhone 6,52.652894444444,5.0824166666667,Yes,"51, Nieuwendoorngracht, Kersenboogerd, Hoorn, North Holland, Netherlands, 1628KE, Netherlands",1.0,0.0,0.0,0.0,0.0,0.0,0.0,0.0,0.0,1.0
3,2021-06-23 11:58:05,254673,2,iPhone 6,52.651663888889,5.0809638888889,Yes,"55, Lijster, Kersenboogerd, Hoorn, North Holland, Netherlands, 1628AM, Netherlands",1.0,0.0,0.0,0.0,0.0,1.0,0.0,0.0,0.0,0.0
4,2021-06-23 11:58:49,226807,2,iPhone 6,52.651869444444,5.0807,Yes,"Ecoproject Het Lantaarntje, Zaanweg, Kersenboogerd, Hoorn, North Holland, Netherlands, 1628AM, Netherlands",1.0,0.0,0.0,0.0,1.0,0.0,0.0,0.0,1.0,0.0
5,2021-06-23 11:59:38,225783,2,iPhone 6,52.651425,5.0811916666667,Yes,"Zaanweg, Kersenboogerd, Hoorn, North Holland, Netherlands, 1628AM, Netherlands",1.0,0.0,0.0,0.0,0.0,1.0,0.0,0.0,1.0,0.0
